<?xml version="1.0" encoding="UTF-8"?>
<kml xmlns="http://www.opengis.net/kml/2.2">
  <Document>
    <name>Dogout</name>
    <description>Dog-Friendly places around the world</description>
    <Style id="icon-1520-BDBDBD-labelson">
      <IconStyle>
        <scale>1</scale>
        <Icon>
          <href>images/icon-6.png</href>
        </Icon>
      </IconStyle>
    </Style>
    <Style id="icon-1521-FFD600-labelson">
      <IconStyle>
        <scale>1</scale>
        <Icon>
          <href>images/icon-4.png</href>
        </Icon>
      </IconStyle>
    </Style>
    <Style id="icon-1521-FFD600-labelson-nodesc">
      <IconStyle>
        <scale>1</scale>
        <Icon>
          <href>images/icon-4.png</href>
        </Icon>
      </IconStyle>
      <BalloonStyle>
        <text><![CDATA[<h3>$[name]</h3>]]></text>
      </BalloonStyle>
    </Style>
    <Style id="icon-1577-0F9D58-labelson">
      <IconStyle>
        <scale>1</scale>
        <Icon>
          <href>images/icon-2.png</href>
        </Icon>
      </IconStyle>
    </Style>
    <Style id="icon-1577-0F9D58-labelson-nodesc">
      <IconStyle>
        <scale>1</scale>
        <Icon>
          <href>images/icon-2.png</href>
        </Icon>
      </IconStyle>
      <BalloonStyle>
        <text><![CDATA[<h3>$[name]</h3>]]></text>
      </BalloonStyle>
    </Style>
    <Style id="icon-1602-757575-labelson">
      <IconStyle>
        <scale>1</scale>
        <Icon>
          <href>images/icon-5.png</href>
        </Icon>
      </IconStyle>
    </Style>
    <Style id="icon-1684-000000-labelson">
      <IconStyle>
        <scale>1</scale>
        <Icon>
          <href>images/icon-8.png</href>
        </Icon>
      </IconStyle>
    </Style>
    <Style id="icon-1684-000000-labelson-nodesc">
      <IconStyle>
        <scale>1</scale>
        <Icon>
          <href>images/icon-8.png</href>
        </Icon>
      </IconStyle>
      <BalloonStyle>
        <text><![CDATA[<h3>$[name]</h3>]]></text>
      </BalloonStyle>
    </Style>
    <Style id="icon-1685-F9A825-labelson">
      <IconStyle>
        <scale>1</scale>
        <Icon>
          <href>images/icon-7.png</href>
        </Icon>
      </IconStyle>
    </Style>
    <Style id="icon-1713-0288D1-labelson">
      <IconStyle>
        <scale>1</scale>
        <Icon>
          <href>images/icon-1.png</href>
        </Icon>
      </IconStyle>
    </Style>
    <Style id="icon-1820-FF5252-labelson">
      <IconStyle>
        <scale>1</scale>
        <Icon>
          <href>images/icon-3.png</href>
        </Icon>
      </IconStyle>
    </Style>
    <Folder>
      <name>Activities</name>
      <Placemark>
        <name>Svaha Yoga Jordaan Studio</name>
        <description>Yoga with dog</description>
        <styleUrl>#icon-1713-0288D1-labelson</styleUrl>
        <Point>
          <coordinates>
            4.88281719999998,52.3809556,0
          </coordinates>
        </Point>
      </Placemark>
      <Placemark>
        <name>New York Dog Spa and Hotel</name>
        <description><![CDATA[Dog spa & hotel]]></description>
        <styleUrl>#icon-1713-0288D1-labelson</styleUrl>
        <Point>
          <coordinates>
            -73.9906141,40.74348,0
          </coordinates>
        </Point>
      </Placemark>
      <Placemark>
        <name>BerlinMitHund - the dog event agency</name>
        <description>Tour</description>
        <styleUrl>#icon-1713-0288D1-labelson</styleUrl>
        <Point>
          <coordinates>
            13.4996894999999,52.4590976,0
          </coordinates>
        </Point>
      </Placemark>
      <Placemark>
        <name>Stern und Kreisschiffahrt GmbH</name>
        <description>Boat tour</description>
        <styleUrl>#icon-1713-0288D1-labelson</styleUrl>
        <Point>
          <coordinates>
            13.2738071,52.5874748,0
          </coordinates>
        </Point>
      </Placemark>
      <Placemark>
        <name>Reederei Riedel GmbH</name>
        <description>Boat Tour</description>
        <styleUrl>#icon-1713-0288D1-labelson</styleUrl>
        <Point>
          <coordinates>
            13.5006510000001,52.481202,0
          </coordinates>
        </Point>
      </Placemark>
      <Placemark>
        <name>Brighton Fishing Museum</name>
        <description>Museum</description>
        <styleUrl>#icon-1713-0288D1-labelson</styleUrl>
        <Point>
          <coordinates>
            -0.141794699999991,50.8199818,0
          </coordinates>
        </Point>
      </Placemark>
      <Placemark>
        <name>Pura Vida Rickshaw Tours</name>
        <description>Tours</description>
        <styleUrl>#icon-1713-0288D1-labelson</styleUrl>
        <Point>
          <coordinates>
            2.16894649999995,41.3727363,0
          </coordinates>
        </Point>
      </Placemark>
      <Placemark>
        <name>Rederij Paping</name>
        <description>Tour</description>
        <styleUrl>#icon-1713-0288D1-labelson</styleUrl>
        <Point>
          <coordinates>
            4.86329580000006,52.3778534,0
          </coordinates>
        </Point>
      </Placemark>
      <Placemark>
        <name>Ghost Walk Of The Lanes</name>
        <description>Tour</description>
        <styleUrl>#icon-1713-0288D1-labelson</styleUrl>
        <Point>
          <coordinates>
            -0.139845599999944,50.8216763,0
          </coordinates>
        </Point>
      </Placemark>
      <Placemark>
        <name>Funky Cycle</name>
        <description>Tour</description>
        <styleUrl>#icon-1713-0288D1-labelson</styleUrl>
        <Point>
          <coordinates>
            2.18869300000006,41.391289,0
          </coordinates>
        </Point>
      </Placemark>
      <Placemark>
        <name>GoBoat London</name>
        <description>Boat tour</description>
        <styleUrl>#icon-1713-0288D1-labelson</styleUrl>
        <Point>
          <coordinates>
            -0.173995999999988,51.518518,0
          </coordinates>
        </Point>
      </Placemark>
      <Placemark>
        <name>Picturehouse Central</name>
        <description>Cinema (Check dates)</description>
        <styleUrl>#icon-1713-0288D1-labelson</styleUrl>
        <Point>
          <coordinates>
            -0.133749200000011,51.5106799,0
          </coordinates>
        </Point>
      </Placemark>
      <Placemark>
        <name>Ritzy Cinema and Cafe</name>
        <description>Cinema (Check dates)</description>
        <styleUrl>#icon-1713-0288D1-labelson</styleUrl>
        <Point>
          <coordinates>
            -0.115012799999931,51.4612247,0
          </coordinates>
        </Point>
      </Placemark>
      <Placemark>
        <name>Rooftop Film Club</name>
        <description>Rooftop cinema</description>
        <styleUrl>#icon-1713-0288D1-labelson</styleUrl>
        <Point>
          <coordinates>
            -0.0675244000000248,51.4699171,0
          </coordinates>
        </Point>
      </Placemark>
      <Placemark>
        <name>Queen of Hoxton</name>
        <description>Rooftop cinema</description>
        <styleUrl>#icon-1713-0288D1-labelson</styleUrl>
        <Point>
          <coordinates>
            -0.0812349999999924,51.522135,0
          </coordinates>
        </Point>
      </Placemark>
      <Placemark>
        <name>Rooftop Film Club</name>
        <description>Rooftop cinema (Check dates)</description>
        <styleUrl>#icon-1713-0288D1-labelson</styleUrl>
        <Point>
          <coordinates>
            -0.000878699999930177,51.5416446,0
          </coordinates>
        </Point>
      </Placemark>
      <Placemark>
        <name>Embassy Suites by Hilton New York Midtown Manhattan</name>
        <description>Rooftop cinema</description>
        <styleUrl>#icon-1713-0288D1-labelson</styleUrl>
        <Point>
          <coordinates>
            -73.9858836,40.7513318,0
          </coordinates>
        </Point>
      </Placemark>
      <Placemark>
        <name>888 S Olive St</name>
        <description>Rooftop cinema</description>
        <styleUrl>#icon-1713-0288D1-labelson</styleUrl>
        <Point>
          <coordinates>
            -118.2577227,34.04386,0
          </coordinates>
        </Point>
      </Placemark>
      <Placemark>
        <name>NeueHouse Hollywood</name>
        <description>Rooftop cinema</description>
        <styleUrl>#icon-1713-0288D1-labelson</styleUrl>
        <Point>
          <coordinates>
            -118.3231797,34.0986153,0
          </coordinates>
        </Point>
      </Placemark>
      <Placemark>
        <name>Manchester Grand Hyatt Hotel</name>
        <description>Rooftop cinema</description>
        <styleUrl>#icon-1713-0288D1-labelson</styleUrl>
        <Point>
          <coordinates>
            -117.1678339,32.709746,0
          </coordinates>
        </Point>
      </Placemark>
      <Placemark>
        <name>Cinema Lliure a la Platja</name>
        <description>Cinema at the beach</description>
        <styleUrl>#icon-1713-0288D1-labelson</styleUrl>
        <Point>
          <coordinates>
            2.1913165,41.3757137,0
          </coordinates>
        </Point>
      </Placemark>
      <Placemark>
        <name>Funicular Productions</name>
        <description>Theatre (check dates)</description>
        <styleUrl>#icon-1713-0288D1-labelson</styleUrl>
        <Point>
          <coordinates>
            -0.0653349000000389,51.5232238,0
          </coordinates>
        </Point>
      </Placemark>
      <Placemark>
        <name>Summerhall Place</name>
        <description>Arts + events</description>
        <styleUrl>#icon-1713-0288D1-labelson</styleUrl>
        <Point>
          <coordinates>
            -3.18225630000006,55.9394064,0
          </coordinates>
        </Point>
      </Placemark>
      <Placemark>
        <name><![CDATA[Edinburgh Arts & Picture Framers]]></name>
        <description>Art gallery + picture framing</description>
        <styleUrl>#icon-1713-0288D1-labelson</styleUrl>
        <Point>
          <coordinates>
            -3.18618200000003,55.947082,0
          </coordinates>
        </Point>
      </Placemark>
    </Folder>
    <Folder>
      <name><![CDATA[Eat & Drink]]></name>
      <Placemark>
        <name>Bulldog Edition At Ace Hotel</name>
        <description>Café</description>
        <styleUrl>#icon-1577-0F9D58-labelson</styleUrl>
        <Point>
          <coordinates>
            -0.0772365000000264,51.5257443,0
          </coordinates>
        </Point>
      </Placemark>
      <Placemark>
        <name>The Grange Pub</name>
        <description>Pub</description>
        <styleUrl>#icon-1577-0F9D58-labelson</styleUrl>
        <Point>
          <coordinates>
            -0.075009399999999,51.4937847,0
          </coordinates>
        </Point>
      </Placemark>
      <Placemark>
        <name>The Mayflower Pub</name>
        <description>Pub</description>
        <styleUrl>#icon-1577-0F9D58-labelson</styleUrl>
        <Point>
          <coordinates>
            -0.0535574000000452,51.5017621,0
          </coordinates>
        </Point>
      </Placemark>
      <Placemark>
        <name>The Angel</name>
        <description>Pub</description>
        <styleUrl>#icon-1577-0F9D58-labelson</styleUrl>
        <Point>
          <coordinates>
            -0.0590455999999904,51.5006419,0
          </coordinates>
        </Point>
      </Placemark>
      <Placemark>
        <name>Mercato Metropolitano</name>
        <description>Indoors market</description>
        <styleUrl>#icon-1577-0F9D58-labelson</styleUrl>
        <Point>
          <coordinates>
            -0.0983157000000574,51.4983112,0
          </coordinates>
        </Point>
      </Placemark>
      <Placemark>
        <name>The Narrowboat Pub</name>
        <description>Café</description>
        <styleUrl>#icon-1577-0F9D58-labelson</styleUrl>
        <Point>
          <coordinates>
            -0.0968344999999999,51.5330826,0
          </coordinates>
        </Point>
      </Placemark>
      <Placemark>
        <name>The Westbourne</name>
        <description>Restaurant</description>
        <styleUrl>#icon-1577-0F9D58-labelson</styleUrl>
        <Point>
          <coordinates>
            -0.194840999999997,51.5194175,0
          </coordinates>
        </Point>
      </Placemark>
      <Placemark>
        <name>The Society Club</name>
        <description>Café</description>
        <styleUrl>#icon-1577-0F9D58-labelson</styleUrl>
        <Point>
          <coordinates>
            -0.135784899999976,51.5131135,0
          </coordinates>
        </Point>
      </Placemark>
      <Placemark>
        <name>Pizarro</name>
        <description>Restaurant (Spanish)</description>
        <styleUrl>#icon-1577-0F9D58-labelson</styleUrl>
        <Point>
          <coordinates>
            -0.0812479999999596,51.498469,0
          </coordinates>
        </Point>
      </Placemark>
      <Placemark>
        <name>The Egerton House Hotel</name>
        <description>Afternoon tea</description>
        <styleUrl>#icon-1577-0F9D58-labelson</styleUrl>
        <Point>
          <coordinates>
            -0.167764000000034,51.496959,0
          </coordinates>
        </Point>
      </Placemark>
      <Placemark>
        <name>J Sheekey Atlantic Bar</name>
        <description>Restaurant</description>
        <styleUrl>#icon-1577-0F9D58-labelson</styleUrl>
        <Point>
          <coordinates>
            -0.127597199999968,51.5109221,0
          </coordinates>
        </Point>
      </Placemark>
      <Placemark>
        <name>M Victoria Street</name>
        <description>Brunch</description>
        <styleUrl>#icon-1577-0F9D58-labelson</styleUrl>
        <Point>
          <coordinates>
            -0.139053600000011,51.497147,0
          </coordinates>
        </Point>
      </Placemark>
      <Placemark>
        <name>40 Dean St</name>
        <description>Restaurant (Italian)</description>
        <styleUrl>#icon-1577-0F9D58-labelson</styleUrl>
        <Point>
          <coordinates>
            -0.13224850000006,51.5132824,0
          </coordinates>
        </Point>
      </Placemark>
      <Placemark>
        <name>Bluebird Cafe</name>
        <description>Café</description>
        <styleUrl>#icon-1577-0F9D58-labelson</styleUrl>
        <Point>
          <coordinates>
            -0.175593299999946,51.4848829,0
          </coordinates>
        </Point>
      </Placemark>
      <Placemark>
        <name><![CDATA[Maggie Jones's Restaurant]]></name>
        <description>Restaurant</description>
        <styleUrl>#icon-1577-0F9D58-labelson</styleUrl>
        <Point>
          <coordinates>
            -0.191006600000037,51.5028316,0
          </coordinates>
        </Point>
      </Placemark>
      <Placemark>
        <name>The Orchard London</name>
        <description>Restaurant</description>
        <styleUrl>#icon-1577-0F9D58-labelson</styleUrl>
        <Point>
          <coordinates>
            -0.035606400000006,51.4637915,0
          </coordinates>
        </Point>
      </Placemark>
      <Placemark>
        <name>Bellanger</name>
        <description>Restaurant (French)</description>
        <styleUrl>#icon-1577-0F9D58-labelson</styleUrl>
        <Point>
          <coordinates>
            -0.102716600000008,51.5364409,0
          </coordinates>
        </Point>
      </Placemark>
      <Placemark>
        <name>Sketch</name>
        <description>Brunch</description>
        <styleUrl>#icon-1577-0F9D58-labelson</styleUrl>
        <Point>
          <coordinates>
            -0.141528999999991,51.512693,0
          </coordinates>
        </Point>
      </Placemark>
      <Placemark>
        <name>The Duck and Rice</name>
        <description>Restaurant (Chinese)</description>
        <styleUrl>#icon-1577-0F9D58-labelson</styleUrl>
        <Point>
          <coordinates>
            -0.134972500000003,51.5134768,0
          </coordinates>
        </Point>
      </Placemark>
      <Placemark>
        <name>Boro Bistro</name>
        <description>Restaurant (French)</description>
        <styleUrl>#icon-1577-0F9D58-labelson</styleUrl>
        <Point>
          <coordinates>
            -0.0887850000000299,51.506149,0
          </coordinates>
        </Point>
      </Placemark>
      <Placemark>
        <name><![CDATA[Smith & Whistle]]></name>
        <description>Bar</description>
        <styleUrl>#icon-1577-0F9D58-labelson</styleUrl>
        <Point>
          <coordinates>
            -0.146980699999972,51.5049266,0
          </coordinates>
        </Point>
      </Placemark>
      <Placemark>
        <name>The Garrison Public House</name>
        <description>Brunch</description>
        <styleUrl>#icon-1577-0F9D58-labelson</styleUrl>
        <Point>
          <coordinates>
            -0.081719000000021,51.50069,0
          </coordinates>
        </Point>
      </Placemark>
      <Placemark>
        <name>Fuckoffee</name>
        <description>Café</description>
        <styleUrl>#icon-1577-0F9D58-labelson</styleUrl>
        <Point>
          <coordinates>
            -0.0811648000000105,51.4993594,0
          </coordinates>
        </Point>
      </Placemark>
      <Placemark>
        <name>The Watch House</name>
        <description>Café</description>
        <styleUrl>#icon-1577-0F9D58-labelson</styleUrl>
        <Point>
          <coordinates>
            -0.0813121999999566,51.4979949,0
          </coordinates>
        </Point>
      </Placemark>
      <Placemark>
        <name>Hej Coffee</name>
        <description>Café</description>
        <styleUrl>#icon-1577-0F9D58-labelson</styleUrl>
        <Point>
          <coordinates>
            -0.0811089000000038,51.4971598,0
          </coordinates>
        </Point>
      </Placemark>
      <Placemark>
        <name><![CDATA[Salami & Co.]]></name>
        <description>Café</description>
        <styleUrl>#icon-1577-0F9D58-labelson</styleUrl>
        <Point>
          <coordinates>
            -1.69408709999993,53.9057863,0
          </coordinates>
        </Point>
      </Placemark>
      <Placemark>
        <name>Paws for Coffee</name>
        <description>Café</description>
        <styleUrl>#icon-1577-0F9D58-labelson</styleUrl>
        <Point>
          <coordinates>
            -0.273488899999961,51.4643899,0
          </coordinates>
        </Point>
      </Placemark>
      <Placemark>
        <name>Metrodeco</name>
        <description>Café</description>
        <styleUrl>#icon-1577-0F9D58-labelson</styleUrl>
        <Point>
          <coordinates>
            -0.127712900000006,50.8194546,0
          </coordinates>
        </Point>
      </Placemark>
      <Placemark>
        <name>The Long Dog Café</name>
        <description>Café</description>
        <styleUrl>#icon-1577-0F9D58-labelson</styleUrl>
        <Point>
          <coordinates>
            -2.12215809999998,57.1382898,0
          </coordinates>
        </Point>
      </Placemark>
      <Placemark>
        <name>Palm Vaults London</name>
        <description>Café</description>
        <styleUrl>#icon-1577-0F9D58-labelson</styleUrl>
        <Point>
          <coordinates>
            -0.0552691000000323,51.5492229,0
          </coordinates>
        </Point>
      </Placemark>
      <Placemark>
        <name><![CDATA[Megan's on the Hill]]></name>
        <description>Restaurant</description>
        <styleUrl>#icon-1577-0F9D58-labelson</styleUrl>
        <Point>
          <coordinates>
            -0.150257799999963,51.4439734,0
          </coordinates>
        </Point>
      </Placemark>
      <Placemark>
        <name>Milk</name>
        <description>Cafe</description>
        <styleUrl>#icon-1577-0F9D58-labelson</styleUrl>
        <Point>
          <coordinates>
            -0.150830000000042,51.444485,0
          </coordinates>
        </Point>
      </Placemark>
      <Placemark>
        <name>Brother Marcus - Balham</name>
        <description>Restaurant</description>
        <styleUrl>#icon-1577-0F9D58-labelson</styleUrl>
        <Point>
          <coordinates>
            -0.153348899999969,51.4436652,0
          </coordinates>
        </Point>
      </Placemark>
      <Placemark>
        <name>The Grove at Balham</name>
        <description>Pub</description>
        <styleUrl>#icon-1577-0F9D58-labelson</styleUrl>
        <Point>
          <coordinates>
            -0.151016499999969,51.4484789,0
          </coordinates>
        </Point>
      </Placemark>
      <Placemark>
        <name>The Hope</name>
        <description>Pub</description>
        <styleUrl>#icon-1577-0F9D58-labelson</styleUrl>
        <Point>
          <coordinates>
            -0.166101199999957,51.4450997,0
          </coordinates>
        </Point>
      </Placemark>
      <Placemark>
        <name>The Abbeville</name>
        <description>Pub</description>
        <styleUrl>#icon-1577-0F9D58-labelson</styleUrl>
        <Point>
          <coordinates>
            -0.139468599999987,51.4549437,0
          </coordinates>
        </Point>
      </Placemark>
      <Placemark>
        <name>The Rookery</name>
        <description>Restaurant</description>
        <styleUrl>#icon-1577-0F9D58-labelson</styleUrl>
        <Point>
          <coordinates>
            -0.144034000000033,51.456252,0
          </coordinates>
        </Point>
      </Placemark>
      <Placemark>
        <name>F. Mondays</name>
        <description>Cafe</description>
        <styleUrl>#icon-1577-0F9D58-labelson</styleUrl>
        <Point>
          <coordinates>
            -0.120422299999973,51.4539927,0
          </coordinates>
        </Point>
      </Placemark>
      <Placemark>
        <name><![CDATA[Hally's Ltd]]></name>
        <description>Cafe</description>
        <styleUrl>#icon-1577-0F9D58-labelson</styleUrl>
        <Point>
          <coordinates>
            -0.201356000000033,51.472533,0
          </coordinates>
        </Point>
      </Placemark>
      <Placemark>
        <name>The Lido Cafe</name>
        <description>Cafe</description>
        <styleUrl>#icon-1577-0F9D58-labelson</styleUrl>
        <Point>
          <coordinates>
            -0.106188999999972,51.4533369,0
          </coordinates>
        </Point>
      </Placemark>
      <Placemark>
        <name>Seven at Brixton</name>
        <description>Restaurant (Spanish)</description>
        <styleUrl>#icon-1577-0F9D58-labelson</styleUrl>
        <Point>
          <coordinates>
            -0.113166999999976,51.461995,0
          </coordinates>
        </Point>
      </Placemark>
      <Placemark>
        <name>The Imperial Durbar</name>
        <description>Bar</description>
        <styleUrl>#icon-1577-0F9D58-labelson</styleUrl>
        <Point>
          <coordinates>
            -0.160093599999982,51.4360139,0
          </coordinates>
        </Point>
      </Placemark>
      <Placemark>
        <name>Toast Rack</name>
        <description>Brunch</description>
        <styleUrl>#icon-1577-0F9D58-labelson</styleUrl>
        <Point>
          <coordinates>
            -0.173644999999965,51.450062,0
          </coordinates>
        </Point>
      </Placemark>
      <Placemark>
        <name>Project Orange</name>
        <description>Bar</description>
        <styleUrl>#icon-1577-0F9D58-labelson</styleUrl>
        <Point>
          <coordinates>
            -0.170438600000011,51.4628485,0
          </coordinates>
        </Point>
      </Placemark>
      <Placemark>
        <name><![CDATA[Smoke & Salt]]></name>
        <description>Restaurant</description>
        <styleUrl>#icon-1577-0F9D58-labelson</styleUrl>
        <Point>
          <coordinates>
            -0.112346399999979,51.4635098,0
          </coordinates>
        </Point>
      </Placemark>
      <Placemark>
        <name>Humble Grape</name>
        <description>Wine bar</description>
        <styleUrl>#icon-1577-0F9D58-labelson</styleUrl>
        <Point>
          <coordinates>
            -0.162766000000033,51.4611525,0
          </coordinates>
        </Point>
      </Placemark>
      <Placemark>
        <name>London Beer Lab</name>
        <description>Brewery</description>
        <styleUrl>#icon-1577-0F9D58-labelson</styleUrl>
        <Point>
          <coordinates>
            -0.116235500000016,51.4633772,0
          </coordinates>
        </Point>
      </Placemark>
      <Placemark>
        <name><![CDATA[Megan's by the Green]]></name>
        <description>Restaurant</description>
        <styleUrl>#icon-1577-0F9D58-labelson</styleUrl>
        <Point>
          <coordinates>
            -0.200518999999986,51.474877,0
          </coordinates>
        </Point>
      </Placemark>
      <Placemark>
        <name>Soif</name>
        <description>Wine bar</description>
        <styleUrl>#icon-1577-0F9D58-labelson</styleUrl>
        <Point>
          <coordinates>
            -0.163696100000038,51.460773,0
          </coordinates>
        </Point>
      </Placemark>
      <Placemark>
        <name>Mamalan</name>
        <description>Restaurant (Chinese)</description>
        <styleUrl>#icon-1577-0F9D58-labelson</styleUrl>
        <Point>
          <coordinates>
            -0.112398600000006,51.4625361,0
          </coordinates>
        </Point>
      </Placemark>
      <Placemark>
        <name>The Windmill</name>
        <description>Bar</description>
        <styleUrl>#icon-1577-0F9D58-labelson</styleUrl>
        <Point>
          <coordinates>
            -0.122336300000029,51.454073,0
          </coordinates>
        </Point>
      </Placemark>
      <Placemark>
        <name>The Beast of Brixton</name>
        <description>Bar</description>
        <styleUrl>#icon-1577-0F9D58-labelson</styleUrl>
        <Point>
          <coordinates>
            -0.124760299999934,51.4594428,0
          </coordinates>
        </Point>
      </Placemark>
      <Placemark>
        <name><![CDATA[Tortuga Caribbean Restaurant & Cocktail Bar]]></name>
        <description>Restaurant</description>
        <styleUrl>#icon-1577-0F9D58-labelson</styleUrl>
        <Point>
          <coordinates>
            -0.199839500000053,51.445829,0
          </coordinates>
        </Point>
      </Placemark>
      <Placemark>
        <name>Gazette</name>
        <description>Restaurant (French)</description>
        <styleUrl>#icon-1577-0F9D58-labelson</styleUrl>
        <Point>
          <coordinates>
            -0.182282299999997,51.4657517,0
          </coordinates>
        </Point>
      </Placemark>
      <Placemark>
        <name>Dogstar</name>
        <description>Bar</description>
        <styleUrl>#icon-1577-0F9D58-labelson</styleUrl>
        <Point>
          <coordinates>
            -0.111911999999961,51.461714,0
          </coordinates>
        </Point>
      </Placemark>
      <Placemark>
        <name>Minnow</name>
        <description>Restaurant</description>
        <styleUrl>#icon-1577-0F9D58-labelson</styleUrl>
        <Point>
          <coordinates>
            -0.139901000000009,51.462122,0
          </coordinates>
        </Point>
      </Placemark>
      <Placemark>
        <name>The New Zealand Cellar</name>
        <description>Wine bar</description>
        <styleUrl>#icon-1577-0F9D58-labelson</styleUrl>
        <Point>
          <coordinates>
            -0.112550000000056,51.463267,0
          </coordinates>
        </Point>
      </Placemark>
      <Placemark>
        <name>Canada Water Cafe</name>
        <description>Cafe</description>
        <styleUrl>#icon-1577-0F9D58-labelson</styleUrl>
        <Point>
          <coordinates>
            -0.0491779999999835,51.498744,0
          </coordinates>
        </Point>
      </Placemark>
      <Placemark>
        <name>Cafe On The Rye</name>
        <description>Cafe</description>
        <styleUrl>#icon-1577-0F9D58-labelson</styleUrl>
        <Point>
          <coordinates>
            -0.0627346999999645,51.4588776,0
          </coordinates>
        </Point>
      </Placemark>
      <Placemark>
        <name>The Greenhouse Deptford</name>
        <description>Brunch</description>
        <styleUrl>#icon-1577-0F9D58-labelson</styleUrl>
        <Point>
          <coordinates>
            -0.0281618999999864,51.4753732,0
          </coordinates>
        </Point>
      </Placemark>
      <Placemark>
        <name>The Captain Kidd</name>
        <description>Brewery</description>
        <styleUrl>#icon-1577-0F9D58-labelson</styleUrl>
        <Point>
          <coordinates>
            -0.0582182000000557,51.5032543,0
          </coordinates>
        </Point>
      </Placemark>
      <Placemark>
        <name>The Bach Hoxton</name>
        <description>Brunch</description>
        <styleUrl>#icon-1577-0F9D58-labelson</styleUrl>
        <Point>
          <coordinates>
            -0.0799738000000616,51.5309944,0
          </coordinates>
        </Point>
      </Placemark>
      <Placemark>
        <name>White Post. Bar Cafe Events</name>
        <description>Bar</description>
        <styleUrl>#icon-1577-0F9D58-labelson</styleUrl>
        <Point>
          <coordinates>
            -0.0225370000000567,51.5416721,0
          </coordinates>
        </Point>
      </Placemark>
      <Placemark>
        <name>Jam Circus</name>
        <description>Bar</description>
        <styleUrl>#icon-1577-0F9D58-labelson</styleUrl>
        <Point>
          <coordinates>
            -0.0366133999999647,51.4559468,0
          </coordinates>
        </Point>
      </Placemark>
      <Placemark>
        <name>Southwark Brewing Company</name>
        <description>Brewery</description>
        <styleUrl>#icon-1577-0F9D58-labelson</styleUrl>
        <Point>
          <coordinates>
            -0.0770970999999463,51.5005871,0
          </coordinates>
        </Point>
      </Placemark>
      <Placemark>
        <name>New London Cafe</name>
        <description>Cafe</description>
        <styleUrl>#icon-1577-0F9D58-labelson</styleUrl>
        <Point>
          <coordinates>
            -0.0984449999999697,51.546873,0
          </coordinates>
        </Point>
      </Placemark>
      <Placemark>
        <name>FARMSTAND</name>
        <description>Brunch</description>
        <styleUrl>#icon-1577-0F9D58-labelson</styleUrl>
        <Point>
          <coordinates>
            -0.121871899999974,51.5143969,0
          </coordinates>
        </Point>
      </Placemark>
      <Placemark>
        <name>The Parlour</name>
        <description>Brunch</description>
        <styleUrl>#icon-1577-0F9D58-labelson</styleUrl>
        <Point>
          <coordinates>
            -0.101191999999969,51.4521117,0
          </coordinates>
        </Point>
      </Placemark>
      <Placemark>
        <name>Ozone Coffee Roasters</name>
        <description>Cafe</description>
        <styleUrl>#icon-1577-0F9D58-labelson</styleUrl>
        <Point>
          <coordinates>
            -0.0868551999999454,51.5246824,0
          </coordinates>
        </Point>
      </Placemark>
      <Placemark>
        <name>Howling Hops Brewery and Tank Bar</name>
        <description>Bar</description>
        <styleUrl>#icon-1577-0F9D58-labelson</styleUrl>
        <Point>
          <coordinates>
            -0.0225800000000618,51.542812,0
          </coordinates>
        </Point>
      </Placemark>
      <Placemark>
        <name><![CDATA[Duck & Waffle]]></name>
        <description>Pub</description>
        <styleUrl>#icon-1577-0F9D58-labelson</styleUrl>
        <Point>
          <coordinates>
            -0.0809401999999864,51.5161743,0
          </coordinates>
        </Point>
      </Placemark>
      <Placemark>
        <name>Gosnells</name>
        <description>Brewery</description>
        <styleUrl>#icon-1577-0F9D58-labelson</styleUrl>
        <Point>
          <coordinates>
            -0.0750160000000051,51.468507,0
          </coordinates>
        </Point>
      </Placemark>
      <Placemark>
        <name><![CDATA[CRATE Brewery & Pizzeria]]></name>
        <description>Restaurant</description>
        <styleUrl>#icon-1577-0F9D58-labelson</styleUrl>
        <Point>
          <coordinates>
            -0.02221899999995,51.542905,0
          </coordinates>
        </Point>
      </Placemark>
      <Placemark>
        <name>214 Bermondsey</name>
        <description>Bar</description>
        <styleUrl>#icon-1577-0F9D58-labelson</styleUrl>
        <Point>
          <coordinates>
            -0.0813912999999502,51.4981486,0
          </coordinates>
        </Point>
      </Placemark>
      <Placemark>
        <name>Super Lyan</name>
        <description>Bar</description>
        <styleUrl>#icon-1577-0F9D58-labelson</styleUrl>
        <Point>
          <coordinates>
            -0.0803009999999631,51.5312368,0
          </coordinates>
        </Point>
      </Placemark>
      <Placemark>
        <name><![CDATA[Caravan King's Cross]]></name>
        <description>Restaurant</description>
        <styleUrl>#icon-1577-0F9D58-labelson</styleUrl>
        <Point>
          <coordinates>
            -0.125289100000032,51.5357822,0
          </coordinates>
        </Point>
      </Placemark>
      <Placemark>
        <name>BrewDog Shoreditch</name>
        <description>Pub</description>
        <styleUrl>#icon-1577-0F9D58-labelson</styleUrl>
        <Point>
          <coordinates>
            -0.072567299999946,51.5246137,0
          </coordinates>
        </Point>
      </Placemark>
      <Placemark>
        <name><![CDATA[Hardy’s Brasserie & Wine Bar]]></name>
        <description>Bar</description>
        <styleUrl>#icon-1577-0F9D58-labelson</styleUrl>
        <Point>
          <coordinates>
            -0.154798600000049,51.5197057,0
          </coordinates>
        </Point>
      </Placemark>
      <Placemark>
        <name>Freud Café</name>
        <description>Cafe</description>
        <styleUrl>#icon-1577-0F9D58-labelson</styleUrl>
        <Point>
          <coordinates>
            -0.126598400000034,51.5154016,0
          </coordinates>
        </Point>
      </Placemark>
      <Placemark>
        <name>Patron Cave à Manger</name>
        <description>Restaurant (French)</description>
        <styleUrl>#icon-1577-0F9D58-labelson</styleUrl>
        <Point>
          <coordinates>
            -0.140823800000021,51.5526938,0
          </coordinates>
        </Point>
      </Placemark>
      <Placemark>
        <name>Momento Lounge Bar</name>
        <description>Bar</description>
        <styleUrl>#icon-1577-0F9D58-labelson</styleUrl>
        <Point>
          <coordinates>
            -0.0777550000000247,51.5224002,0
          </coordinates>
        </Point>
      </Placemark>
      <Placemark>
        <name><![CDATA[Hubbub Bar & Kitchen]]></name>
        <description>Cafe</description>
        <styleUrl>#icon-1577-0F9D58-labelson</styleUrl>
        <Point>
          <coordinates>
            -0.0242739999999912,51.49211,0
          </coordinates>
        </Point>
      </Placemark>
      <Placemark>
        <name>The Hangout</name>
        <description>Brunch</description>
        <styleUrl>#icon-1577-0F9D58-labelson</styleUrl>
        <Point>
          <coordinates>
            -0.111529399999995,51.486182,0
          </coordinates>
        </Point>
      </Placemark>
      <Placemark>
        <name>90° Degree Melt</name>
        <description>Restaurant</description>
        <styleUrl>#icon-1577-0F9D58-labelson</styleUrl>
        <Point>
          <coordinates>
            -0.0447616000000153,51.5222896,0
          </coordinates>
        </Point>
      </Placemark>
      <Placemark>
        <name>The Racketeer</name>
        <description>Bar</description>
        <styleUrl>#icon-1577-0F9D58-labelson</styleUrl>
        <Point>
          <coordinates>
            -0.115899799999966,51.5285163,0
          </coordinates>
        </Point>
      </Placemark>
      <Placemark>
        <name>Lantana Cafe Fitzrovia</name>
        <description>Cafe</description>
        <styleUrl>#icon-1577-0F9D58-labelson</styleUrl>
        <Point>
          <coordinates>
            -0.135989300000006,51.5189727,0
          </coordinates>
        </Point>
      </Placemark>
      <Placemark>
        <name>Darkhorse Restaurant Bar</name>
        <description>Restaurant</description>
        <styleUrl>#icon-1577-0F9D58-labelson</styleUrl>
        <Point>
          <coordinates>
            -0.0107516000000487,51.5476586,0
          </coordinates>
        </Point>
      </Placemark>
      <Placemark>
        <name>Portland</name>
        <description>Restaurant</description>
        <styleUrl>#icon-1577-0F9D58-labelson</styleUrl>
        <Point>
          <coordinates>
            -0.142689399999995,51.5197922,0
          </coordinates>
        </Point>
      </Placemark>
      <Placemark>
        <name>Proud East</name>
        <description>Brunch</description>
        <styleUrl>#icon-1577-0F9D58-labelson</styleUrl>
        <Point>
          <coordinates>
            -0.0785373999999592,51.5369177,0
          </coordinates>
        </Point>
      </Placemark>
      <Placemark>
        <name><![CDATA[Satan's Whiskers]]></name>
        <description>Bar</description>
        <styleUrl>#icon-1577-0F9D58-labelson</styleUrl>
        <Point>
          <coordinates>
            -0.0560987000000068,51.5295068,0
          </coordinates>
        </Point>
      </Placemark>
      <Placemark>
        <name>Polo Bar</name>
        <description>Bar</description>
        <styleUrl>#icon-1577-0F9D58-labelson</styleUrl>
        <Point>
          <coordinates>
            -0.0801454999999578,51.5175881,0
          </coordinates>
        </Point>
      </Placemark>
      <Placemark>
        <name>Louie Louie</name>
        <description>Brunch</description>
        <styleUrl>#icon-1577-0F9D58-labelson</styleUrl>
        <Point>
          <coordinates>
            -0.0940607,51.4860118,0
          </coordinates>
        </Point>
      </Placemark>
      <Placemark>
        <name>Look mum no hands!</name>
        <description>Cafe</description>
        <styleUrl>#icon-1577-0F9D58-labelson</styleUrl>
        <Point>
          <coordinates>
            -0.0968890000000329,51.524168,0
          </coordinates>
        </Point>
      </Placemark>
      <Placemark>
        <name>Dirty Bones Soho</name>
        <description>Restaurant</description>
        <styleUrl>#icon-1577-0F9D58-labelson</styleUrl>
        <Point>
          <coordinates>
            -0.135292599999957,51.5108109,0
          </coordinates>
        </Point>
      </Placemark>
      <Placemark>
        <name><![CDATA[Dishoom King's Cross]]></name>
        <description>Restaurant (Indian)</description>
        <styleUrl>#icon-1577-0F9D58-labelson</styleUrl>
        <Point>
          <coordinates>
            -0.125448300000016,51.536175,0
          </coordinates>
        </Point>
      </Placemark>
      <Placemark>
        <name>Park Cafe, Victoria Park</name>
        <description>Cafe</description>
        <styleUrl>#icon-1577-0F9D58-labelson</styleUrl>
        <Point>
          <coordinates>
            -0.0357751999999891,51.5375715,0
          </coordinates>
        </Point>
      </Placemark>
      <Placemark>
        <name>Hopscotch</name>
        <description>Bar</description>
        <styleUrl>#icon-1577-0F9D58-labelson</styleUrl>
        <Point>
          <coordinates>
            -0.0713991000000078,51.52417,0
          </coordinates>
        </Point>
      </Placemark>
      <Placemark>
        <name>Sager + Wilde</name>
        <description>Bar</description>
        <styleUrl>#icon-1577-0F9D58-labelson</styleUrl>
        <Point>
          <coordinates>
            -0.0561259999999493,51.528268,0
          </coordinates>
        </Point>
      </Placemark>
      <Placemark>
        <name>The Table Cafe</name>
        <description>Cafe</description>
        <styleUrl>#icon-1577-0F9D58-labelson</styleUrl>
        <Point>
          <coordinates>
            -0.0997128000000203,51.5055418,0
          </coordinates>
        </Point>
      </Placemark>
      <Placemark>
        <name>The Vurger Co</name>
        <description>Restaurant (Vegan)</description>
        <styleUrl>#icon-1577-0F9D58-labelson</styleUrl>
        <Point>
          <coordinates>
            -0.0727816999999504,51.5240377,0
          </coordinates>
        </Point>
      </Placemark>
      <Placemark>
        <name>Fucina</name>
        <description>Restaurant (Italian)</description>
        <styleUrl>#icon-1577-0F9D58-labelson</styleUrl>
        <Point>
          <coordinates>
            -0.155516499999976,51.520597,0
          </coordinates>
        </Point>
      </Placemark>
      <Placemark>
        <name>Hatchetts Mayfair</name>
        <description>Bar</description>
        <styleUrl>#icon-1577-0F9D58-labelson</styleUrl>
        <Point>
          <coordinates>
            -0.145829000000049,51.505785,0
          </coordinates>
        </Point>
      </Placemark>
      <Placemark>
        <name>Gong</name>
        <description>Bar</description>
        <styleUrl>#icon-1577-0F9D58-labelson</styleUrl>
        <Point>
          <coordinates>
            -0.0863778000000366,51.5044365,0
          </coordinates>
        </Point>
      </Placemark>
      <Placemark>
        <name><![CDATA[L'Escargot Restaurant]]></name>
        <description>Restaurant (French)</description>
        <styleUrl>#icon-1577-0F9D58-labelson</styleUrl>
        <Point>
          <coordinates>
            -0.130928799999992,51.5139794,0
          </coordinates>
        </Point>
      </Placemark>
      <Placemark>
        <name>Casa Tua Camden</name>
        <description>Brunch</description>
        <styleUrl>#icon-1577-0F9D58-labelson</styleUrl>
        <Point>
          <coordinates>
            -0.138005600000042,51.5416167,0
          </coordinates>
        </Point>
      </Placemark>
      <Placemark>
        <name>Augustus Harris</name>
        <description>Restaurant (Italian)</description>
        <styleUrl>#icon-1577-0F9D58-labelson</styleUrl>
        <Point>
          <coordinates>
            -0.120738599999981,51.5126749,0
          </coordinates>
        </Point>
      </Placemark>
      <Placemark>
        <name>St Paul Islington Cafe</name>
        <description>Cafe</description>
        <styleUrl>#icon-1577-0F9D58-labelson</styleUrl>
        <Point>
          <coordinates>
            -0.100491199999965,51.5463945,0
          </coordinates>
        </Point>
      </Placemark>
      <Placemark>
        <name>Wringer and Mangle</name>
        <description>Restaurant</description>
        <styleUrl>#icon-1577-0F9D58-labelson</styleUrl>
        <Point>
          <coordinates>
            -0.0576634999999897,51.5394301,0
          </coordinates>
        </Point>
      </Placemark>
      <Placemark>
        <name><![CDATA[Salotto 31 Wine Bar & Restaurant]]></name>
        <description>Restaurant (Italian)</description>
        <styleUrl>#icon-1577-0F9D58-labelson</styleUrl>
        <Point>
          <coordinates>
            -0.0838072999999895,51.5103534,0
          </coordinates>
        </Point>
      </Placemark>
      <Placemark>
        <name>Every Cloud</name>
        <description>Bar</description>
        <styleUrl>#icon-1577-0F9D58-labelson</styleUrl>
        <Point>
          <coordinates>
            -0.0545620000000326,51.546174,0
          </coordinates>
        </Point>
      </Placemark>
      <Placemark>
        <name>The Common E2</name>
        <description>Sandwich</description>
        <styleUrl>#icon-1577-0F9D58-labelson</styleUrl>
        <Point>
          <coordinates>
            -0.061053099999981,51.5293989,0
          </coordinates>
        </Point>
      </Placemark>
      <Placemark>
        <name>O-food</name>
        <description>Sandwich (Scandinavian)</description>
        <styleUrl>#icon-1577-0F9D58-labelson</styleUrl>
        <Point>
          <coordinates>
            -0.0749949999999444,51.5191842,0
          </coordinates>
        </Point>
      </Placemark>
      <Placemark>
        <name>Urban Baristas</name>
        <description>Bar</description>
        <styleUrl>#icon-1577-0F9D58-labelson</styleUrl>
        <Point>
          <coordinates>
            -0.0558469999999716,51.504483,0
          </coordinates>
        </Point>
      </Placemark>
      <Placemark>
        <name>The Coffee Lovers fl Cafe</name>
        <description>Cafe</description>
        <styleUrl>#icon-1577-0F9D58-labelson</styleUrl>
        <Point>
          <coordinates>
            -0.132950100000016,51.4741685,0
          </coordinates>
        </Point>
      </Placemark>
      <Placemark>
        <name>Holy Shot Coffee</name>
        <description>Cafe</description>
        <styleUrl>#icon-1577-0F9D58-labelson</styleUrl>
        <Point>
          <coordinates>
            -0.0705860000000484,51.525495,0
          </coordinates>
        </Point>
      </Placemark>
      <Placemark>
        <name>Manitoba Tigella</name>
        <description>Restaurant (Italian)</description>
        <styleUrl>#icon-1577-0F9D58-labelson</styleUrl>
        <Point>
          <coordinates>
            -0.128179000000046,51.516821,0
          </coordinates>
        </Point>
      </Placemark>
      <Placemark>
        <name>Clutch Chicken</name>
        <description>Brunch</description>
        <styleUrl>#icon-1577-0F9D58-labelson</styleUrl>
        <Point>
          <coordinates>
            -0.0712210000000368,51.529756,0
          </coordinates>
        </Point>
      </Placemark>
      <Placemark>
        <name>Il Cudega</name>
        <description>Restaurant (Italian)</description>
        <styleUrl>#icon-1577-0F9D58-labelson</styleUrl>
        <Point>
          <coordinates>
            -0.060053000000039,51.537419,0
          </coordinates>
        </Point>
      </Placemark>
      <Placemark>
        <name>Souli</name>
        <description>Sandwich</description>
        <styleUrl>#icon-1577-0F9D58-labelson</styleUrl>
        <Point>
          <coordinates>
            -0.153756899999962,51.5176404,0
          </coordinates>
        </Point>
      </Placemark>
      <Placemark>
        <name><![CDATA[Burgess & Hall Wines]]></name>
        <description>Wine bar</description>
        <styleUrl>#icon-1577-0F9D58-labelson</styleUrl>
        <Point>
          <coordinates>
            0.0188490000000456,51.555501,0
          </coordinates>
        </Point>
      </Placemark>
      <Placemark>
        <name>Champagne + Fromage</name>
        <description>Bar (French)</description>
        <styleUrl>#icon-1577-0F9D58-labelson</styleUrl>
        <Point>
          <coordinates>
            -0.00984459999995124,51.4813592,0
          </coordinates>
        </Point>
      </Placemark>
      <Placemark>
        <name>Mokapot</name>
        <description>Cafe</description>
        <styleUrl>#icon-1577-0F9D58-labelson</styleUrl>
        <Point>
          <coordinates>
            -0.103990500000009,51.5350203,0
          </coordinates>
        </Point>
      </Placemark>
      <Placemark>
        <name>Red Rooster Shoreditch</name>
        <description>Brunch (Scandinavian)</description>
        <styleUrl>#icon-1577-0F9D58-labelson</styleUrl>
        <Point>
          <coordinates>
            -0.0806178000000273,51.5237209,0
          </coordinates>
        </Point>
      </Placemark>
      <Placemark>
        <name>The Gentlemen Baristas</name>
        <description>Cafe</description>
        <styleUrl>#icon-1577-0F9D58-labelson</styleUrl>
        <Point>
          <coordinates>
            -0.0946500000000015,51.503936,0
          </coordinates>
        </Point>
      </Placemark>
      <Placemark>
        <name>KHP Coffee House</name>
        <description>Cafe</description>
        <styleUrl>#icon-1577-0F9D58-labelson</styleUrl>
        <Point>
          <coordinates>
            -0.0868292999999767,51.5468782,0
          </coordinates>
        </Point>
      </Placemark>
      <Placemark>
        <name>Sazzy and Fran Cafe</name>
        <description>Cafe</description>
        <styleUrl>#icon-1577-0F9D58-labelson</styleUrl>
        <Point>
          <coordinates>
            -0.059122699999989,51.5326631,0
          </coordinates>
        </Point>
      </Placemark>
      <Placemark>
        <name>The New Black</name>
        <description>Cafe</description>
        <styleUrl>#icon-1577-0F9D58-labelson</styleUrl>
        <Point>
          <coordinates>
            -0.0842890000000125,51.5110601,0
          </coordinates>
        </Point>
      </Placemark>
      <Placemark>
        <name><![CDATA[B'acino]]></name>
        <description>Restaurant (Italian)</description>
        <styleUrl>#icon-1577-0F9D58-labelson</styleUrl>
        <Point>
          <coordinates>
            -0.0809690999999475,51.5233948,0
          </coordinates>
        </Point>
      </Placemark>
      <Placemark>
        <name>CAYA</name>
        <description>Cafe</description>
        <styleUrl>#icon-1577-0F9D58-labelson</styleUrl>
        <Point>
          <coordinates>
            -0.108790999999997,51.462846,0
          </coordinates>
        </Point>
      </Placemark>
      <Placemark>
        <name>Franks Canteen</name>
        <description>Brunch</description>
        <styleUrl>#icon-1577-0F9D58-labelson</styleUrl>
        <Point>
          <coordinates>
            -0.0979803999999831,51.5573724,0
          </coordinates>
        </Point>
      </Placemark>
      <Placemark>
        <name>The Brixton Pound Cafe</name>
        <description>Cafe</description>
        <styleUrl>#icon-1577-0F9D58-labelson</styleUrl>
        <Point>
          <coordinates>
            -0.110982700000022,51.4610425,0
          </coordinates>
        </Point>
      </Placemark>
      <Placemark>
        <name>The Chapel Café Bar</name>
        <description>Bar</description>
        <styleUrl>#icon-1577-0F9D58-labelson</styleUrl>
        <Point>
          <coordinates>
            -0.118973600000004,51.528377,0
          </coordinates>
        </Point>
      </Placemark>
      <Placemark>
        <name><![CDATA[L'Oculto]]></name>
        <description>Restaurant (Spanish)</description>
        <styleUrl>#icon-1577-0F9D58-labelson</styleUrl>
        <Point>
          <coordinates>
            -0.0228713000000198,51.4673545,0
          </coordinates>
        </Point>
      </Placemark>
      <Placemark>
        <name>Papilles</name>
        <description>Cafe (French)</description>
        <styleUrl>#icon-1577-0F9D58-labelson</styleUrl>
        <Point>
          <coordinates>
            -0.0897836000000325,51.5279393,0
          </coordinates>
        </Point>
      </Placemark>
      <Placemark>
        <name>Café Lulu</name>
        <description>Cafe</description>
        <styleUrl>#icon-1577-0F9D58-labelson</styleUrl>
        <Point>
          <coordinates>
            -0.101137600000015,51.447994,0
          </coordinates>
        </Point>
      </Placemark>
      <Placemark>
        <name>Green Door</name>
        <description>Cafe (Greek)</description>
        <styleUrl>#icon-1577-0F9D58-labelson</styleUrl>
        <Point>
          <coordinates>
            -0.138818600000036,51.5235814,0
          </coordinates>
        </Point>
      </Placemark>
      <Placemark>
        <name>Wedge Issue Pizza + Beer</name>
        <description>Pizza</description>
        <styleUrl>#icon-1577-0F9D58-labelson</styleUrl>
        <Point>
          <coordinates>
            -0.110752000000048,51.521901,0
          </coordinates>
        </Point>
      </Placemark>
      <Placemark>
        <name>Vini Italiani Covent Garden</name>
        <description>Restaurant (Italian)</description>
        <styleUrl>#icon-1577-0F9D58-labelson</styleUrl>
        <Point>
          <coordinates>
            -0.12232599999993,51.511892,0
          </coordinates>
        </Point>
      </Placemark>
      <Placemark>
        <name>Top 1 Forever</name>
        <description>Restaurant (French)</description>
        <styleUrl>#icon-1577-0F9D58-labelson</styleUrl>
        <Point>
          <coordinates>
            0.0207087000000001,51.5074987,0
          </coordinates>
        </Point>
      </Placemark>
      <Placemark>
        <name>Black Cat café</name>
        <description>Cafe (Vegan)</description>
        <styleUrl>#icon-1577-0F9D58-labelson</styleUrl>
        <Point>
          <coordinates>
            -0.0555206999999882,51.5514035,0
          </coordinates>
        </Point>
      </Placemark>
      <Placemark>
        <name>Pop Art Sushi</name>
        <description>Restaurant (Sushi + Italian)</description>
        <styleUrl>#icon-1577-0F9D58-labelson</styleUrl>
        <Point>
          <coordinates>
            -0.125593200000026,51.485688,0
          </coordinates>
        </Point>
      </Placemark>
      <Placemark>
        <name><![CDATA[EZ & Moss]]></name>
        <description>Brunch (Vegan)</description>
        <styleUrl>#icon-1577-0F9D58-labelson</styleUrl>
        <Point>
          <coordinates>
            -0.109284399999979,51.5501457,0
          </coordinates>
        </Point>
      </Placemark>
      <Placemark>
        <name>Friends of Ours</name>
        <description>Brunch</description>
        <styleUrl>#icon-1577-0F9D58-labelson</styleUrl>
        <Point>
          <coordinates>
            -0.0837586000000101,51.5291088,0
          </coordinates>
        </Point>
      </Placemark>
      <Placemark>
        <name>O Curruncho dos Titos</name>
        <description>Bar</description>
        <styleUrl>#icon-1577-0F9D58-labelson</styleUrl>
        <Point>
          <coordinates>
            -8.73227910000003,42.2315731,0
          </coordinates>
        </Point>
      </Placemark>
      <Placemark>
        <name>El mono vintage bar</name>
        <description>Bar</description>
        <styleUrl>#icon-1577-0F9D58-labelson</styleUrl>
        <Point>
          <coordinates>
            -8.721856,42.235991,0
          </coordinates>
        </Point>
      </Placemark>
      <Placemark>
        <name>Bar ConXeito</name>
        <description>Bar</description>
        <styleUrl>#icon-1577-0F9D58-labelson</styleUrl>
        <Point>
          <coordinates>
            -8.72871069999997,42.2384367,0
          </coordinates>
        </Point>
      </Placemark>
      <Placemark>
        <name>Bocateria El Mucanijo</name>
        <description>Sandwich</description>
        <styleUrl>#icon-1577-0F9D58-labelson</styleUrl>
        <Point>
          <coordinates>
            -8.71907659999999,42.2387094,0
          </coordinates>
        </Point>
      </Placemark>
      <Placemark>
        <name>Tetería Rosalinda</name>
        <description>Tea</description>
        <styleUrl>#icon-1577-0F9D58-labelson</styleUrl>
        <Point>
          <coordinates>
            -8.7151877,42.2325946,0
          </coordinates>
        </Point>
      </Placemark>
      <Placemark>
        <name>Tapería Labranza</name>
        <description>Restaurant</description>
        <styleUrl>#icon-1577-0F9D58-labelson</styleUrl>
        <Point>
          <coordinates>
            -8.72443329999999,42.1913359,0
          </coordinates>
        </Point>
      </Placemark>
      <Placemark>
        <name>La Cultural Music Bar </name>
        <description>Bar</description>
        <styleUrl>#icon-1577-0F9D58-labelson</styleUrl>
        <Point>
          <coordinates>
            -8.72398529999998,42.2252883,0
          </coordinates>
        </Point>
      </Placemark>
      <Placemark>
        <name>La Leyenda Vigo</name>
        <description>Restaurant</description>
        <styleUrl>#icon-1577-0F9D58-labelson</styleUrl>
        <Point>
          <coordinates>
            -8.71556599999997,42.230977,0
          </coordinates>
        </Point>
      </Placemark>
      <Placemark>
        <name>O muíño do vento</name>
        <description>Restaurant</description>
        <styleUrl>#icon-1577-0F9D58-labelson</styleUrl>
        <Point>
          <coordinates>
            -8.76993179999999,42.2233005,0
          </coordinates>
        </Point>
      </Placemark>
      <Placemark>
        <name>Café Shiva</name>
        <description>Cafe</description>
        <styleUrl>#icon-1577-0F9D58-labelson</styleUrl>
        <Point>
          <coordinates>
            -8.7032901,42.2264093,0
          </coordinates>
        </Point>
      </Placemark>
      <Placemark>
        <name>Restaurante Creperie Bretonne</name>
        <description>Restaurant (Creperie)</description>
        <styleUrl>#icon-1577-0F9D58-labelson</styleUrl>
        <Point>
          <coordinates>
            -8.7167326,42.2347384,0
          </coordinates>
        </Point>
      </Placemark>
      <Placemark>
        <name>Bambú</name>
        <description>Restaurante</description>
        <styleUrl>#icon-1577-0F9D58-labelson</styleUrl>
        <Point>
          <coordinates>
            -8.71720600000003,42.237226,0
          </coordinates>
        </Point>
      </Placemark>
      <Placemark>
        <name>Los Dulces de Albita</name>
        <description>Cake shop</description>
        <styleUrl>#icon-1577-0F9D58-labelson</styleUrl>
        <Point>
          <coordinates>
            -8.72266809999996,42.2399135,0
          </coordinates>
        </Point>
      </Placemark>
      <Placemark>
        <name>Tomate Outra</name>
        <description>Cafe</description>
        <styleUrl>#icon-1577-0F9D58-labelson</styleUrl>
        <Point>
          <coordinates>
            -8.73212000000001,42.22836,0
          </coordinates>
        </Point>
      </Placemark>
      <Placemark>
        <name>O Pirata</name>
        <description>Restaurant</description>
        <styleUrl>#icon-1577-0F9D58-labelson</styleUrl>
        <Point>
          <coordinates>
            -8.77275370000007,42.2222905,0
          </coordinates>
        </Point>
      </Placemark>
      <Placemark>
        <name>Cafetería Movenpick</name>
        <description>Cafe</description>
        <styleUrl>#icon-1577-0F9D58-labelson</styleUrl>
        <Point>
          <coordinates>
            -8.73137480000003,42.2253481,0
          </coordinates>
        </Point>
      </Placemark>
      <Placemark>
        <name>La Juakina</name>
        <description>Restaurant</description>
        <styleUrl>#icon-1577-0F9D58-labelson</styleUrl>
        <Point>
          <coordinates>
            -8.72495419999996,42.2352992,0
          </coordinates>
        </Point>
      </Placemark>
      <Placemark>
        <name>Alta Fidelidad - Ingravitto Café - Bar</name>
        <description>Cafe</description>
        <styleUrl>#icon-1577-0F9D58-labelson</styleUrl>
        <Point>
          <coordinates>
            -8.72639500000002,42.2384359,0
          </coordinates>
        </Point>
      </Placemark>
      <Placemark>
        <name>Jukebox Vigo</name>
        <description>Karaoke</description>
        <styleUrl>#icon-1577-0F9D58-labelson</styleUrl>
        <Point>
          <coordinates>
            -8.71528549999994,42.2375248,0
          </coordinates>
        </Point>
      </Placemark>
      <Placemark>
        <name>Apiramoria</name>
        <description>Bar</description>
        <styleUrl>#icon-1577-0F9D58-labelson</styleUrl>
        <Point>
          <coordinates>
            -8.71621070000003,42.2357289,0
          </coordinates>
        </Point>
      </Placemark>
      <Placemark>
        <name>Josefina Picoteo</name>
        <description>Restaurant</description>
        <styleUrl>#icon-1577-0F9D58-labelson</styleUrl>
        <Point>
          <coordinates>
            -8.72761719999994,42.2384998,0
          </coordinates>
        </Point>
      </Placemark>
      <Placemark>
        <name>Cafe UF</name>
        <description>Cafe</description>
        <styleUrl>#icon-1577-0F9D58-labelson</styleUrl>
        <Point>
          <coordinates>
            -8.72565459999998,42.2362203,0
          </coordinates>
        </Point>
      </Placemark>
      <Placemark>
        <name>Restaurante Valdevez Vigo</name>
        <description>Restaurant</description>
        <styleUrl>#icon-1577-0F9D58-labelson</styleUrl>
        <Point>
          <coordinates>
            -8.72568100000001,42.239664,0
          </coordinates>
        </Point>
      </Placemark>
      <Placemark>
        <name>Gálgala</name>
        <description>Restaurant</description>
        <styleUrl>#icon-1577-0F9D58-labelson</styleUrl>
        <Point>
          <coordinates>
            -8.72574929999996,42.236173,0
          </coordinates>
        </Point>
      </Placemark>
      <Placemark>
        <name>Matina</name>
        <description>Cafe + Cake shop</description>
        <styleUrl>#icon-1577-0F9D58-labelson</styleUrl>
        <Point>
          <coordinates>
            -8.72596199999998,42.237232,0
          </coordinates>
        </Point>
      </Placemark>
      <Placemark>
        <name>Entorem</name>
        <description>Restaurant</description>
        <styleUrl>#icon-1577-0F9D58-labelson</styleUrl>
        <Point>
          <coordinates>
            -8.7238132,42.2388428,0
          </coordinates>
        </Point>
      </Placemark>
      <Placemark>
        <name>Asador Rumbos</name>
        <description>Restaurant</description>
        <styleUrl>#icon-1577-0F9D58-labelson</styleUrl>
        <Point>
          <coordinates>
            -8.76295149999999,42.2142533,0
          </coordinates>
        </Point>
      </Placemark>
      <Placemark>
        <name>Taberna la Bastarda</name>
        <description>Restaurant</description>
        <styleUrl>#icon-1577-0F9D58-labelson</styleUrl>
        <Point>
          <coordinates>
            -8.7283602,42.235896,0
          </coordinates>
        </Point>
      </Placemark>
      <Placemark>
        <name>Taberna Baiuca</name>
        <description>Restaurant</description>
        <styleUrl>#icon-1577-0F9D58-labelson</styleUrl>
        <Point>
          <coordinates>
            -8.7268037,42.2389428,0
          </coordinates>
        </Point>
      </Placemark>
      <Placemark>
        <name>La Sabrosa</name>
        <description>Restaurant</description>
        <styleUrl>#icon-1577-0F9D58-labelson</styleUrl>
        <Point>
          <coordinates>
            -8.72738370000002,42.2395245,0
          </coordinates>
        </Point>
      </Placemark>
      <Placemark>
        <name>Hamburgueseria Vegetariana Llevame Al Huerto</name>
        <description>Burgers (Vegan)</description>
        <styleUrl>#icon-1577-0F9D58-labelson</styleUrl>
        <Point>
          <coordinates>
            -8.71616140000003,42.2328201,0
          </coordinates>
        </Point>
      </Placemark>
      <Placemark>
        <name>Cafetería O Trasgo</name>
        <description>Cafe</description>
        <styleUrl>#icon-1577-0F9D58-labelson</styleUrl>
        <Point>
          <coordinates>
            -8.73175360000005,42.2327088,0
          </coordinates>
        </Point>
      </Placemark>
      <Placemark>
        <name>La galeriajazz</name>
        <description>Bar</description>
        <styleUrl>#icon-1577-0F9D58-labelson</styleUrl>
        <Point>
          <coordinates>
            -8.72451430000001,42.2353718,0
          </coordinates>
        </Point>
      </Placemark>
      <Placemark>
        <name>Entre Cervezas</name>
        <description>Bar</description>
        <styleUrl>#icon-1577-0F9D58-labelson</styleUrl>
        <Point>
          <coordinates>
            -8.72619080000004,42.2232988,0
          </coordinates>
        </Point>
      </Placemark>
      <Placemark>
        <name>La Bohème</name>
        <description>Cafe</description>
        <styleUrl>#icon-1577-0F9D58-labelson</styleUrl>
        <Point>
          <coordinates>
            -8.72222540000007,42.2342619,0
          </coordinates>
        </Point>
      </Placemark>
      <Placemark>
        <name>Buqué</name>
        <description>Wine bar</description>
        <styleUrl>#icon-1577-0F9D58-labelson</styleUrl>
        <Point>
          <coordinates>
            -8.72598049999999,42.2391372,0
          </coordinates>
        </Point>
      </Placemark>
      <Placemark>
        <name>Mishima Café do Libro</name>
        <description>Cafe</description>
        <styleUrl>#icon-1577-0F9D58-labelson</styleUrl>
        <Point>
          <coordinates>
            -8.72978890000002,42.223231,0
          </coordinates>
        </Point>
      </Placemark>
      <Placemark>
        <name>Fundación Sales</name>
        <description>Bar + Botanical garden</description>
        <styleUrl>#icon-1577-0F9D58-labelson</styleUrl>
        <Point>
          <coordinates>
            -8.76294099999996,42.2147821,0
          </coordinates>
        </Point>
      </Placemark>
      <Placemark>
        <name>O Lar do Queixa - Tetería Cervexería</name>
        <description>Bar + tea</description>
        <styleUrl>#icon-1577-0F9D58-labelson</styleUrl>
        <Point>
          <coordinates>
            -8.71516199999996,42.237331,0
          </coordinates>
        </Point>
      </Placemark>
      <Placemark>
        <name>Taberna A Mina</name>
        <description>Bar</description>
        <styleUrl>#icon-1577-0F9D58-labelson</styleUrl>
        <Point>
          <coordinates>
            -8.72721460000002,42.2382698,0
          </coordinates>
        </Point>
      </Placemark>
      <Placemark>
        <name>La Zumería</name>
        <description>Juice bar</description>
        <styleUrl>#icon-1577-0F9D58-labelson</styleUrl>
        <Point>
          <coordinates>
            -8.73290539999994,42.2189959,0
          </coordinates>
        </Point>
      </Placemark>
      <Placemark>
        <name>Detras Do Marco</name>
        <description>Cafe</description>
        <styleUrl>#icon-1577-0F9D58-labelson</styleUrl>
        <Point>
          <coordinates>
            -8.72160729999996,42.2358173,0
          </coordinates>
        </Point>
      </Placemark>
      <Placemark>
        <name>O Recuncho</name>
        <description>Restaurant</description>
        <styleUrl>#icon-1577-0F9D58-labelson</styleUrl>
        <Point>
          <coordinates>
            -8.70473519999996,42.2318297,0
          </coordinates>
        </Point>
      </Placemark>
      <Placemark>
        <name>Le Coquelicot</name>
        <description>Cafe</description>
        <styleUrl>#icon-1577-0F9D58-labelson</styleUrl>
        <Point>
          <coordinates>
            -8.72746899999993,42.237071,0
          </coordinates>
        </Point>
      </Placemark>
      <Placemark>
        <name>Mercería Sarabia</name>
        <description>Mercería / Haberdashery</description>
        <styleUrl>#icon-1577-0F9D58-labelson</styleUrl>
        <Point>
          <coordinates>
            -8.74168099999997,42.215747,0
          </coordinates>
        </Point>
      </Placemark>
      <Placemark>
        <name>Flamingo</name>
        <description>Cafe</description>
        <styleUrl>#icon-1577-0F9D58-labelson</styleUrl>
        <Point>
          <coordinates>
            -8.72421080000004,42.2405795,0
          </coordinates>
        </Point>
      </Placemark>
      <Placemark>
        <name>The Othilio Bar</name>
        <description>Bar</description>
        <styleUrl>#icon-1577-0F9D58-labelson</styleUrl>
        <Point>
          <coordinates>
            -8.72313370000006,42.2400301,0
          </coordinates>
        </Point>
      </Placemark>
      <Placemark>
        <name>Mais Palá</name>
        <description>Cafe</description>
        <styleUrl>#icon-1577-0F9D58-labelson</styleUrl>
        <Point>
          <coordinates>
            -8.72089000000005,42.234625,0
          </coordinates>
        </Point>
      </Placemark>
      <Placemark>
        <name>The Concept Urban Design</name>
        <description>Cafe + bar</description>
        <styleUrl>#icon-1577-0F9D58-labelson</styleUrl>
        <Point>
          <coordinates>
            -8.71876710000004,42.2314983,0
          </coordinates>
        </Point>
      </Placemark>
      <Placemark>
        <name>Bar Princesa</name>
        <description>Bar</description>
        <styleUrl>#icon-1577-0F9D58-labelson</styleUrl>
        <Point>
          <coordinates>
            -8.72585600000002,42.238661,0
          </coordinates>
        </Point>
      </Placemark>
      <Placemark>
        <name><![CDATA[S&L]]></name>
        <description>Bar</description>
        <styleUrl>#icon-1577-0F9D58-labelson</styleUrl>
        <Point>
          <coordinates>
            -8.74232219999999,42.216537,0
          </coordinates>
        </Point>
      </Placemark>
      <Placemark>
        <name>El Perro y La Galleta</name>
        <description>Restaurant</description>
        <styleUrl>#icon-1577-0F9D58-labelson</styleUrl>
        <Point>
          <coordinates>
            -3.687363,40.420512,0
          </coordinates>
        </Point>
      </Placemark>
      <Placemark>
        <name>Raro Rare</name>
        <description>Restaurant</description>
        <styleUrl>#icon-1577-0F9D58-labelson</styleUrl>
        <Point>
          <coordinates>
            -3.70068270000002,40.4265888,0
          </coordinates>
        </Point>
      </Placemark>
      <Placemark>
        <name>Café de ratas</name>
        <description>Cafe</description>
        <styleUrl>#icon-1577-0F9D58-labelson</styleUrl>
        <Point>
          <coordinates>
            -3.6994727,40.4086615,0
          </coordinates>
        </Point>
      </Placemark>
      <Placemark>
        <name><![CDATA[Animal&TÉ]]></name>
        <description>Tea</description>
        <styleUrl>#icon-1577-0F9D58-labelson</styleUrl>
        <Point>
          <coordinates>
            -3.70690569999999,40.4100279,0
          </coordinates>
        </Point>
      </Placemark>
      <Placemark>
        <name>Dr.Limón</name>
        <description>Cafe</description>
        <styleUrl>#icon-1577-0F9D58-labelson</styleUrl>
        <Point>
          <coordinates>
            -3.71188459999996,40.4116132,0
          </coordinates>
        </Point>
      </Placemark>
      <Placemark>
        <name>Kikekeller</name>
        <description>Tapas bar</description>
        <styleUrl>#icon-1577-0F9D58-labelson</styleUrl>
        <Point>
          <coordinates>
            -3.70432500000004,40.422188,0
          </coordinates>
        </Point>
      </Placemark>
      <Placemark>
        <name>Johnny and Velvet</name>
        <description>Restaurant + clothing store</description>
        <styleUrl>#icon-1577-0F9D58-labelson</styleUrl>
        <Point>
          <coordinates>
            -3.70504189999997,40.4085627,0
          </coordinates>
        </Point>
      </Placemark>
      <Placemark>
        <name>Santa Eulalia Patisserie</name>
        <description>Cake shop</description>
        <styleUrl>#icon-1577-0F9D58-labelson</styleUrl>
        <Point>
          <coordinates>
            -3.70967339999993,40.4171998,0
          </coordinates>
        </Point>
      </Placemark>
      <Placemark>
        <name>Parada 36</name>
        <description>Bar</description>
        <styleUrl>#icon-1577-0F9D58-labelson</styleUrl>
        <Point>
          <coordinates>
            -3.67250430000001,40.4347588,0
          </coordinates>
        </Point>
      </Placemark>
      <Placemark>
        <name>Faraday</name>
        <description>Cafe</description>
        <styleUrl>#icon-1577-0F9D58-labelson</styleUrl>
        <Point>
          <coordinates>
            -3.69631679999998,40.4237522,0
          </coordinates>
        </Point>
      </Placemark>
      <Placemark>
        <name>IE SANNA DELICIAS</name>
        <description>Cake shop</description>
        <styleUrl>#icon-1577-0F9D58-labelson</styleUrl>
        <Point>
          <coordinates>
            -3.69396740000002,40.4025554,0
          </coordinates>
        </Point>
      </Placemark>
      <Placemark>
        <name>Yerbabuena</name>
        <description>Restaurant (Vegan)</description>
        <styleUrl>#icon-1577-0F9D58-labelson</styleUrl>
        <Point>
          <coordinates>
            -3.70838409999999,40.416751,0
          </coordinates>
        </Point>
      </Placemark>
      <Placemark>
        <name>Lupita Paleta</name>
        <description>Ice-cream</description>
        <styleUrl>#icon-1577-0F9D58-labelson</styleUrl>
        <Point>
          <coordinates>
            -3.70920560000002,40.4101973,0
          </coordinates>
        </Point>
      </Placemark>
      <Placemark>
        <name>Cattleya</name>
        <description>Restaurant</description>
        <styleUrl>#icon-1577-0F9D58-labelson</styleUrl>
        <Point>
          <coordinates>
            -3.70731390000003,40.4247099,0
          </coordinates>
        </Point>
      </Placemark>
      <Placemark>
        <name>Infusionarté</name>
        <description>Tea</description>
        <styleUrl>#icon-1577-0F9D58-labelson</styleUrl>
        <Point>
          <coordinates>
            -3.70774900000004,40.411489,0
          </coordinates>
        </Point>
      </Placemark>
      <Placemark>
        <name>La Bartola de Lavapiés</name>
        <description>Tapas bar</description>
        <styleUrl>#icon-1577-0F9D58-labelson</styleUrl>
        <Point>
          <coordinates>
            -3.69954440000004,40.4101332,0
          </coordinates>
        </Point>
      </Placemark>
      <Placemark>
        <name>La Diavla</name>
        <description>Restaurant</description>
        <styleUrl>#icon-1577-0F9D58-labelson</styleUrl>
        <Point>
          <coordinates>
            -3.67884760000004,40.4213363,0
          </coordinates>
        </Point>
      </Placemark>
      <Placemark>
        <name>Brasserie Antoinette</name>
        <description>Restaurant</description>
        <styleUrl>#icon-1577-0F9D58-labelson</styleUrl>
        <Point>
          <coordinates>
            -3.70664080000006,40.4197437,0
          </coordinates>
        </Point>
      </Placemark>
      <Placemark>
        <name>The Fix</name>
        <description>Brunch</description>
        <styleUrl>#icon-1577-0F9D58-labelson</styleUrl>
        <Point>
          <coordinates>
            -3.71493810000004,40.4257594,0
          </coordinates>
        </Point>
      </Placemark>
      <Placemark>
        <name>El Gato y La Almendra</name>
        <description>Brunch</description>
        <styleUrl>#icon-1577-0F9D58-labelson</styleUrl>
        <Point>
          <coordinates>
            -3.68364350000002,40.3966058,0
          </coordinates>
        </Point>
      </Placemark>
      <Placemark>
        <name>Kritikos</name>
        <description>Restaurant (Greek)</description>
        <styleUrl>#icon-1577-0F9D58-labelson</styleUrl>
        <Point>
          <coordinates>
            -3.69736339999997,40.4236947,0
          </coordinates>
        </Point>
      </Placemark>
      <Placemark>
        <name>Café Viralata</name>
        <description>Cafe</description>
        <styleUrl>#icon-1577-0F9D58-labelson</styleUrl>
        <Point>
          <coordinates>
            -3.70161540000004,40.4107972,0
          </coordinates>
        </Point>
      </Placemark>
      <Placemark>
        <name>El Trato gastrobar</name>
        <description>Restaurant</description>
        <styleUrl>#icon-1577-0F9D58-labelson</styleUrl>
        <Point>
          <coordinates>
            -3.70794090000004,40.4338431,0
          </coordinates>
        </Point>
      </Placemark>
      <Placemark>
        <name><![CDATA[Bowlers Kitchen & Bar]]></name>
        <description>Restaurant</description>
        <styleUrl>#icon-1577-0F9D58-labelson</styleUrl>
        <Point>
          <coordinates>
            -3.67922659999999,40.431854,0
          </coordinates>
        </Point>
      </Placemark>
      <Placemark>
        <name>Café di Vino</name>
        <description>Wine bar</description>
        <styleUrl>#icon-1577-0F9D58-labelson</styleUrl>
        <Point>
          <coordinates>
            -3.70426339999995,40.4286623,0
          </coordinates>
        </Point>
      </Placemark>
      <Placemark>
        <name>La Berlinesa</name>
        <description>Cafe</description>
        <styleUrl>#icon-1577-0F9D58-labelson</styleUrl>
        <Point>
          <coordinates>
            -3.71440789999997,40.4245029,0
          </coordinates>
        </Point>
      </Placemark>
      <Placemark>
        <name>12 Botellas. coktails And Drinks. BAR</name>
        <description>Bar</description>
        <styleUrl>#icon-1577-0F9D58-labelson</styleUrl>
        <Point>
          <coordinates>
            -3.69636479999997,40.4242451,0
          </coordinates>
        </Point>
      </Placemark>
      <Placemark>
        <name>BB BISTROT BAR</name>
        <description>Restaurant</description>
        <styleUrl>#icon-1577-0F9D58-labelson</styleUrl>
        <Point>
          <coordinates>
            -3.69009900000003,40.4219288,0
          </coordinates>
        </Point>
      </Placemark>
      <Placemark>
        <name>Incaffeine</name>
        <description>Cafe</description>
        <styleUrl>#icon-1577-0F9D58-labelson</styleUrl>
        <Point>
          <coordinates>
            -3.67163010000002,40.4273611,0
          </coordinates>
        </Point>
      </Placemark>
      <Placemark>
        <name>Restaurante Argentino El Camoatí</name>
        <description>Restaurant (Argentinian)</description>
        <styleUrl>#icon-1577-0F9D58-labelson</styleUrl>
        <Point>
          <coordinates>
            -3.71239500000001,40.413359,0
          </coordinates>
        </Point>
      </Placemark>
      <Placemark>
        <name>Levadura Madre (Isaac Peral)</name>
        <description>Cake shop</description>
        <styleUrl>#icon-1577-0F9D58-labelson</styleUrl>
        <Point>
          <coordinates>
            -3.71794339999997,40.4364867,0
          </coordinates>
        </Point>
      </Placemark>
      <Placemark>
        <name>Bar Borodin</name>
        <description>Tapas bar</description>
        <styleUrl>#icon-1577-0F9D58-labelson</styleUrl>
        <Point>
          <coordinates>
            -3.70155079999995,40.4055528,0
          </coordinates>
        </Point>
      </Placemark>
      <Placemark>
        <name>Beleeza Açai Bar</name>
        <description>Juice bar</description>
        <styleUrl>#icon-1577-0F9D58-labelson</styleUrl>
        <Point>
          <coordinates>
            -3.68287409999994,40.4364335,0
          </coordinates>
        </Point>
      </Placemark>
      <Placemark>
        <name>Pointer Madrid</name>
        <description>Restaurant</description>
        <styleUrl>#icon-1577-0F9D58-labelson</styleUrl>
        <Point>
          <coordinates>
            -3.69204960000002,40.4252675,0
          </coordinates>
        </Point>
      </Placemark>
      <Placemark>
        <name>Pomerania Madrid</name>
        <description>Restaurant</description>
        <styleUrl>#icon-1577-0F9D58-labelson</styleUrl>
        <Point>
          <coordinates>
            -3.6888295,40.4376243,0
          </coordinates>
        </Point>
      </Placemark>
      <Placemark>
        <name>Chow Chow</name>
        <description>Restaurant</description>
        <styleUrl>#icon-1577-0F9D58-labelson</styleUrl>
        <Point>
          <coordinates>
            -3.68038750000005,40.4519637,0
          </coordinates>
        </Point>
      </Placemark>
      <Placemark>
        <name>Sunne</name>
        <description>Restaurant (Asian-Spanish fusion)</description>
        <styleUrl>#icon-1577-0F9D58-labelson</styleUrl>
        <Point>
          <coordinates>
            -3.69650649999994,40.4262333,0
          </coordinates>
        </Point>
      </Placemark>
      <Placemark>
        <name>Circa Soho</name>
        <description>Bar</description>
        <styleUrl>#icon-1577-0F9D58-labelson</styleUrl>
        <Point>
          <coordinates>
            -0.132141499999989,51.5143559,0
          </coordinates>
        </Point>
      </Placemark>
      <Placemark>
        <name>Fika</name>
        <description>Restaurant (Scandinavian)</description>
        <styleUrl>#icon-1577-0F9D58-labelson</styleUrl>
        <Point>
          <coordinates>
            -0.0717028000000255,51.5245404,0
          </coordinates>
        </Point>
      </Placemark>
      <Placemark>
        <name><![CDATA[Hoxton Square Bar & Kitchen]]></name>
        <description>Bar</description>
        <styleUrl>#icon-1577-0F9D58-labelson</styleUrl>
        <Point>
          <coordinates>
            -0.0817227999999659,51.5274499,0
          </coordinates>
        </Point>
      </Placemark>
      <Placemark>
        <name>José</name>
        <description>Restaurant (Spanish)</description>
        <styleUrl>#icon-1577-0F9D58-labelson</styleUrl>
        <Point>
          <coordinates>
            -0.0819010000000162,51.500577,0
          </coordinates>
        </Point>
      </Placemark>
      <Placemark>
        <name>The Jam Tree</name>
        <description>Restaurant</description>
        <styleUrl>#icon-1577-0F9D58-labelson</styleUrl>
        <Point>
          <coordinates>
            -0.186921999999981,51.4795163,0
          </coordinates>
        </Point>
      </Placemark>
      <Placemark>
        <name>Nude Coffee Roasters</name>
        <description>Cafe</description>
        <styleUrl>#icon-1577-0F9D58-labelson</styleUrl>
        <Point>
          <coordinates>
            -0.0727663999999777,51.5203613,0
          </coordinates>
        </Point>
      </Placemark>
      <Placemark>
        <name>Donostia Restaurant</name>
        <description>Restaurant (Basque–Spanish)</description>
        <styleUrl>#icon-1577-0F9D58-labelson</styleUrl>
        <Point>
          <coordinates>
            -0.161003599999958,51.5147134,0
          </coordinates>
        </Point>
      </Placemark>
      <Placemark>
        <name>Bronte</name>
        <description>Restaurant</description>
        <styleUrl>#icon-1577-0F9D58-labelson</styleUrl>
        <Point>
          <coordinates>
            -0.126589500000023,51.507833,0
          </coordinates>
        </Point>
      </Placemark>
      <Placemark>
        <name>The Three Stags</name>
        <description>Pub</description>
        <styleUrl>#icon-1577-0F9D58-labelson</styleUrl>
        <Point>
          <coordinates>
            -0.111335000000054,51.496728,0
          </coordinates>
        </Point>
      </Placemark>
      <Placemark>
        <name>Plough Way Cafe</name>
        <description>Restaurant (Italian)</description>
        <styleUrl>#icon-1577-0F9D58-labelson</styleUrl>
        <Point>
          <coordinates>
            -0.0382716999999957,51.491624,0
          </coordinates>
        </Point>
      </Placemark>
      <Placemark>
        <name><![CDATA[York & Albany Restaurant]]></name>
        <description>Restaurant</description>
        <styleUrl>#icon-1577-0F9D58-labelson</styleUrl>
        <Point>
          <coordinates>
            -0.146449699999948,51.536052,0
          </coordinates>
        </Point>
      </Placemark>
      <Placemark>
        <name>Paws For Coffee</name>
        <description>Cafe </description>
        <styleUrl>#icon-1577-0F9D58-labelson</styleUrl>
        <Point>
          <coordinates>
            -0.358369100000004,51.4240814,0
          </coordinates>
        </Point>
      </Placemark>
      <Placemark>
        <name>Wags N Tales</name>
        <description>Cafe</description>
        <styleUrl>#icon-1577-0F9D58-labelson</styleUrl>
        <Point>
          <coordinates>
            -0.309085699999969,51.3909664,0
          </coordinates>
        </Point>
      </Placemark>
      <Placemark>
        <name>CafeeKe</name>
        <description>Cafe</description>
        <styleUrl>#icon-1577-0F9D58-labelson</styleUrl>
        <Point>
          <coordinates>
            -3.70797800000003,40.414721,0
          </coordinates>
        </Point>
      </Placemark>
      <Placemark>
        <name>Il Tavolo Verde</name>
        <description>Restaurant</description>
        <styleUrl>#icon-1577-0F9D58-labelson</styleUrl>
        <Point>
          <coordinates>
            -3.689708,40.4212084,0
          </coordinates>
        </Point>
      </Placemark>
      <Placemark>
        <name>Frida</name>
        <description>Restaurant</description>
        <styleUrl>#icon-1577-0F9D58-labelson</styleUrl>
        <Point>
          <coordinates>
            -3.69704950000005,40.4239833,0
          </coordinates>
        </Point>
      </Placemark>
      <Placemark>
        <name>Wanda Café Optimista</name>
        <description>Cafe</description>
        <styleUrl>#icon-1577-0F9D58-labelson</styleUrl>
        <Point>
          <coordinates>
            -3.68964900000003,40.438128,0
          </coordinates>
        </Point>
      </Placemark>
      <Placemark>
        <name>Laverónica</name>
        <description>Restaurant</description>
        <styleUrl>#icon-1577-0F9D58-labelson</styleUrl>
        <Point>
          <coordinates>
            -3.69525810000005,40.4125629,0
          </coordinates>
        </Point>
      </Placemark>
      <Placemark>
        <name>MÜR Café</name>
        <description>Cafe</description>
        <styleUrl>#icon-1577-0F9D58-labelson</styleUrl>
        <Point>
          <coordinates>
            -3.71216960000004,40.4256968,0
          </coordinates>
        </Point>
      </Placemark>
      <Placemark>
        <name>Vailima</name>
        <description>Restaurant + tea</description>
        <styleUrl>#icon-1577-0F9D58-labelson</styleUrl>
        <Point>
          <coordinates>
            -3.68985320000002,40.4203448,0
          </coordinates>
        </Point>
      </Placemark>
      <Placemark>
        <name>La Cocina de San Antón</name>
        <description>Restaurant</description>
        <styleUrl>#icon-1577-0F9D58-labelson</styleUrl>
        <Point>
          <coordinates>
            -3.69765899999993,40.422042,0
          </coordinates>
        </Point>
      </Placemark>
      <Placemark>
        <name>Restaurante El Imparcial</name>
        <description>Restaurant</description>
        <styleUrl>#icon-1577-0F9D58-labelson</styleUrl>
        <Point>
          <coordinates>
            -3.70592250000004,40.4119838,0
          </coordinates>
        </Point>
      </Placemark>
      <Placemark>
        <name>El Columpio</name>
        <description>Restaurant</description>
        <styleUrl>#icon-1577-0F9D58-labelson</styleUrl>
        <Point>
          <coordinates>
            -3.69434039999999,40.4305723,0
          </coordinates>
        </Point>
      </Placemark>
      <Placemark>
        <name>Zombie Bar</name>
        <description>Bar</description>
        <styleUrl>#icon-1577-0F9D58-labelson</styleUrl>
        <Point>
          <coordinates>
            -3.70472540000003,40.4232109,0
          </coordinates>
        </Point>
      </Placemark>
      <Placemark>
        <name>El Porrón Canalla</name>
        <description>Sandwich</description>
        <styleUrl>#icon-1577-0F9D58-labelson</styleUrl>
        <Point>
          <coordinates>
            -3.70358080000005,40.4211143,0
          </coordinates>
        </Point>
      </Placemark>
      <Placemark>
        <name><![CDATA[Buns & Bones Antón Martín]]></name>
        <description>Restaurant</description>
        <styleUrl>#icon-1577-0F9D58-labelson</styleUrl>
        <Point>
          <coordinates>
            -3.69870860000003,40.4113834,0
          </coordinates>
        </Point>
      </Placemark>
      <Placemark>
        <name>Navaja</name>
        <description>Restaurant</description>
        <styleUrl>#icon-1577-0F9D58-labelson</styleUrl>
        <Point>
          <coordinates>
            -3.70150480000007,40.4232889,0
          </coordinates>
        </Point>
      </Placemark>
      <Placemark>
        <name>La China Mandarina</name>
        <description>Restaurant </description>
        <styleUrl>#icon-1577-0F9D58-labelson</styleUrl>
        <Point>
          <coordinates>
            -3.70745420000003,40.4103625,0
          </coordinates>
        </Point>
      </Placemark>
      <Placemark>
        <name>Valgame Dios</name>
        <description>Restaurant</description>
        <styleUrl>#icon-1577-0F9D58-labelson</styleUrl>
        <Point>
          <coordinates>
            -3.69656039999995,40.4220768,0
          </coordinates>
        </Point>
      </Placemark>
      <Placemark>
        <name>PALOSANTO</name>
        <description>Restaurant</description>
        <styleUrl>#icon-1577-0F9D58-labelson</styleUrl>
        <Point>
          <coordinates>
            -3.69737380000004,40.4230096,0
          </coordinates>
        </Point>
      </Placemark>
      <Placemark>
        <name>La Mantequería</name>
        <description>Restaurant</description>
        <styleUrl>#icon-1577-0F9D58-labelson</styleUrl>
        <Point>
          <coordinates>
            -3.71045070000002,40.4251369,0
          </coordinates>
        </Point>
      </Placemark>
      <Placemark>
        <name>Martina Cocina</name>
        <description>Restaurant</description>
        <styleUrl>#icon-1577-0F9D58-labelson</styleUrl>
        <Point>
          <coordinates>
            -3.7070334,40.409868,0
          </coordinates>
        </Point>
      </Placemark>
      <Placemark>
        <name>Le Crust pizza bar</name>
        <description>Pizza</description>
        <styleUrl>#icon-1577-0F9D58-labelson</styleUrl>
        <Point>
          <coordinates>
            -3.70994759999996,40.400834,0
          </coordinates>
        </Point>
      </Placemark>
      <Placemark>
        <name>El Parque Félix - Chiringuito del Batán</name>
        <description>Restaurant</description>
        <styleUrl>#icon-1577-0F9D58-labelson</styleUrl>
        <Point>
          <coordinates>
            -3.7526173,40.4078167,0
          </coordinates>
        </Point>
      </Placemark>
      <Placemark>
        <name>Lúa Vermutería</name>
        <description>Bar</description>
        <styleUrl>#icon-1577-0F9D58-labelson</styleUrl>
        <Point>
          <coordinates>
            -3.69931270000006,40.4071522,0
          </coordinates>
        </Point>
      </Placemark>
      <Placemark>
        <name>Antigua Taquería</name>
        <description>Restaurant</description>
        <styleUrl>#icon-1577-0F9D58-labelson</styleUrl>
        <Point>
          <coordinates>
            -3.70432789999995,40.4094403,0
          </coordinates>
        </Point>
      </Placemark>
      <Placemark>
        <name>Esteban</name>
        <description>Restaurant</description>
        <styleUrl>#icon-1577-0F9D58-labelson</styleUrl>
        <Point>
          <coordinates>
            -3.70999180000001,40.4120688,0
          </coordinates>
        </Point>
      </Placemark>
      <Placemark>
        <name>Charlie Champagne</name>
        <description>Restaurant</description>
        <styleUrl>#icon-1577-0F9D58-labelson</styleUrl>
        <Point>
          <coordinates>
            -3.71237659999997,40.4137852,0
          </coordinates>
        </Point>
      </Placemark>
      <Placemark>
        <name>Rincón de Ati</name>
        <description>Restaurant</description>
        <styleUrl>#icon-1577-0F9D58-labelson</styleUrl>
        <Point>
          <coordinates>
            -3.70842360000006,40.4151213,0
          </coordinates>
        </Point>
      </Placemark>
      <Placemark>
        <name>Restaurante Fonda la Lechuga</name>
        <description>Restaurant</description>
        <styleUrl>#icon-1577-0F9D58-labelson</styleUrl>
        <Point>
          <coordinates>
            -3.70660499999997,40.414399,0
          </coordinates>
        </Point>
      </Placemark>
      <Placemark>
        <name>Restaurante TriCiclo</name>
        <description>Restaurant</description>
        <styleUrl>#icon-1577-0F9D58-labelson</styleUrl>
        <Point>
          <coordinates>
            -3.69724299999996,40.4128929,0
          </coordinates>
        </Point>
      </Placemark>
      <Placemark>
        <name><![CDATA[Tapas & Más]]></name>
        <description>Tapas bar</description>
        <styleUrl>#icon-1577-0F9D58-labelson</styleUrl>
        <Point>
          <coordinates>
            -3.70239170000002,40.4154755,0
          </coordinates>
        </Point>
      </Placemark>
      <Placemark>
        <name>Abrásame</name>
        <description>Restaurant</description>
        <styleUrl>#icon-1577-0F9D58-labelson</styleUrl>
        <Point>
          <coordinates>
            -3.70632990000001,40.4237409,0
          </coordinates>
        </Point>
      </Placemark>
      <Placemark>
        <name>Home Burger Bar</name>
        <description>Burger</description>
        <styleUrl>#icon-1577-0F9D58-labelson</styleUrl>
        <Point>
          <coordinates>
            -3.70286669999996,40.4252359,0
          </coordinates>
        </Point>
      </Placemark>
      <Placemark>
        <name>Home Burger Bar</name>
        <description>Burger</description>
        <styleUrl>#icon-1577-0F9D58-labelson</styleUrl>
        <Point>
          <coordinates>
            -3.70565880000004,40.421943,0
          </coordinates>
        </Point>
      </Placemark>
      <Placemark>
        <name>Home Burger Bar</name>
        <description>Burger</description>
        <styleUrl>#icon-1577-0F9D58-labelson</styleUrl>
        <Point>
          <coordinates>
            -3.68904199999997,40.463135,0
          </coordinates>
        </Point>
      </Placemark>
      <Placemark>
        <name>Maricastaña</name>
        <description>Cafe</description>
        <styleUrl>#icon-1577-0F9D58-labelson</styleUrl>
        <Point>
          <coordinates>
            -3.70431299999996,40.4220464,0
          </coordinates>
        </Point>
      </Placemark>
      <Placemark>
        <name>La Tasquita de Enfrente</name>
        <description>Tapas bar</description>
        <styleUrl>#icon-1577-0F9D58-labelson</styleUrl>
        <Point>
          <coordinates>
            -3.70352649999995,40.421287,0
          </coordinates>
        </Point>
      </Placemark>
      <Placemark>
        <name>Boho Bar</name>
        <description>Bar</description>
        <styleUrl>#icon-1577-0F9D58-labelson</styleUrl>
        <Point>
          <coordinates>
            -3.69681300000002,40.421073,0
          </coordinates>
        </Point>
      </Placemark>
      <Placemark>
        <name>La Jauría</name>
        <description>Restaurant</description>
        <styleUrl>#icon-1577-0F9D58-labelson</styleUrl>
        <Point>
          <coordinates>
            -3.70127849999994,40.4238606,0
          </coordinates>
        </Point>
      </Placemark>
      <Placemark>
        <name>La Realidad</name>
        <description>Restaurant</description>
        <styleUrl>#icon-1577-0F9D58-labelson</styleUrl>
        <Point>
          <coordinates>
            -3.70268209999995,40.4235688,0
          </coordinates>
        </Point>
      </Placemark>
      <Placemark>
        <name>La Cocina de mi Vecina</name>
        <description>Restaurant</description>
        <styleUrl>#icon-1577-0F9D58-labelson</styleUrl>
        <Point>
          <coordinates>
            -3.7019798,40.4253476,0
          </coordinates>
        </Point>
      </Placemark>
      <Placemark>
        <name>Creperie Ma Bretagne</name>
        <description>Creperie</description>
        <styleUrl>#icon-1577-0F9D58-labelson</styleUrl>
        <Point>
          <coordinates>
            -3.70216210000001,40.425559,0
          </coordinates>
        </Point>
      </Placemark>
      <Placemark>
        <name>La Fragua de Sebín</name>
        <description>Restaurant</description>
        <styleUrl>#icon-1577-0F9D58-labelson</styleUrl>
        <Point>
          <coordinates>
            -3.70384260000003,40.4275714,0
          </coordinates>
        </Point>
      </Placemark>
      <Placemark>
        <name>Albur</name>
        <description>Restaurant</description>
        <styleUrl>#icon-1577-0F9D58-labelson</styleUrl>
        <Point>
          <coordinates>
            -3.70364169999993,40.4285923,0
          </coordinates>
        </Point>
      </Placemark>
      <Placemark>
        <name>Amores Perros</name>
        <description>Restaurant</description>
        <styleUrl>#icon-1577-0F9D58-labelson</styleUrl>
        <Point>
          <coordinates>
            -3.70183980000002,40.4281969,0
          </coordinates>
        </Point>
      </Placemark>
      <Placemark>
        <name>Tasty Poke Bar - Quevedo</name>
        <description>Restaurant</description>
        <styleUrl>#icon-1577-0F9D58-labelson</styleUrl>
        <Point>
          <coordinates>
            -3.70482800000002,40.432934,0
          </coordinates>
        </Point>
      </Placemark>
      <Placemark>
        <name>A vÁnvera</name>
        <description>Restaurant</description>
        <styleUrl>#icon-1577-0F9D58-labelson</styleUrl>
        <Point>
          <coordinates>
            -3.6928547,40.4397745,0
          </coordinates>
        </Point>
      </Placemark>
      <Placemark>
        <name>Miss Sushi</name>
        <description>Restaurant (Japanese)</description>
        <styleUrl>#icon-1577-0F9D58-labelson</styleUrl>
        <Point>
          <coordinates>
            -3.68633109999996,40.4315886,0
          </coordinates>
        </Point>
      </Placemark>
      <Placemark>
        <name>Estay</name>
        <description>Tapas bar</description>
        <styleUrl>#icon-1577-0F9D58-labelson</styleUrl>
        <Point>
          <coordinates>
            -3.68302519999997,40.4263953,0
          </coordinates>
        </Point>
      </Placemark>
      <Placemark>
        <name>Attrezzo Gastro Bar</name>
        <description>Tapas bar</description>
        <styleUrl>#icon-1577-0F9D58-labelson</styleUrl>
        <Point>
          <coordinates>
            -3.67392610000002,40.4233583,0
          </coordinates>
        </Point>
      </Placemark>
      <Placemark>
        <name>La Rodaja</name>
        <description>Restaurant</description>
        <styleUrl>#icon-1577-0F9D58-labelson</styleUrl>
        <Point>
          <coordinates>
            -3.66408890000002,40.4296109,0
          </coordinates>
        </Point>
      </Placemark>
      <Placemark>
        <name>GASSET HABANA</name>
        <description>Restaurant (Cuban)</description>
        <styleUrl>#icon-1577-0F9D58-labelson</styleUrl>
        <Point>
          <coordinates>
            -3.67351480000002,40.4300223,0
          </coordinates>
        </Point>
      </Placemark>
      <Placemark>
        <name>Estilo poke</name>
        <description>Restaurant</description>
        <styleUrl>#icon-1577-0F9D58-labelson</styleUrl>
        <Point>
          <coordinates>
            -3.67524969999999,40.4372235,0
          </coordinates>
        </Point>
      </Placemark>
      <Placemark>
        <name>La Margariteña</name>
        <description>Pizza</description>
        <styleUrl>#icon-1577-0F9D58-labelson</styleUrl>
        <Point>
          <coordinates>
            -3.63970449999999,40.4282081,0
          </coordinates>
        </Point>
      </Placemark>
      <Placemark>
        <name>Apricot Lounge</name>
        <description>Restaurant</description>
        <styleUrl>#icon-1577-0F9D58-labelson</styleUrl>
        <Point>
          <coordinates>
            -3.68772990000002,40.4635484,0
          </coordinates>
        </Point>
      </Placemark>
      <Placemark>
        <name>Nicomedes Restaurante</name>
        <description>Restaurant</description>
        <styleUrl>#icon-1577-0F9D58-labelson</styleUrl>
        <Point>
          <coordinates>
            -3.64821319999999,40.4569461,0
          </coordinates>
        </Point>
      </Placemark>